Retailer,Machine ID,Address,Cities,Full Address,Longitude,Latitude
Acme Markets,Q02165,Bear,"Bear, DE","146 Fox Hunt Dr, Bear, DE",-75.7121464,39.6066601
Acme Markets,Q01911,Hockessin,"Hockessin, DE","128 Lantana Dr, Hockessin, DE",-75.7086611,39.7734793
Acme Markets,Q01982,Newark,"Newark, DE","1 University Dr, Newark, DE",-75.6719009,39.6668772
Acme Markets,Q02166,Newark,"Newark, DE","100 Suburban Dr, Newark, DE",-75.7755768,39.6679771
Safeway,Q01551,Newark,"Newark, DE","2400 Peoples Plaza, Newark, DE",-75.7490531,39.6003221
Acme Markets,Q01968,Wilmington,"Wilmington, DE","4720 Limestone Rd, Wilmington, DE",-75.6938136,39.7399655
Acme Markets,Q02170,Wilmington,"Wilmington, DE","2098 Naamans Rd, Wilmington, DE",-75.5005541,39.8238197
Acme Markets,Q02294,Wilmington,"Wilmington, DE","1308 Centerville Rd, Wilmington, DE",-75.6231728,39.7340198
