Retailer,Machine ID,Address,Cities,Full Address,Longitude,Latitude
Shaw's,Q01773,Cranston,"Cranston, RI","8 Chapel View Blvd, Cranston, RI",-71.4586036,41.755492
Shaw's,Q01568,East Providence,"East Providence, RI","575 Taunton Ave, East Providence, RI",-71.3581437,41.820412
Shaw's,Q01462,Middletown,"Middletown, RI","71 E Main Rd, Middletown, RI",-71.2963862,41.5170975
Shaw's,Q01762,North Providence,"North Providence, RI","15 Smithfield Rd, North Providence, RI",-71.4472831,41.8563525
Shaw's,Q02059,Riverside,"Riverside, RI","1050 Willett Ave, Riverside, RI",-71.3438056,41.7598865
Shaw's,Q01427,Wakefield,"Wakefield, RI","160 Old Tower Hill Rd, Wakefield, RI",-71.4822522,41.4434602
